{
    "charterSchoolData": [
        {
            "name": "Brick Church College Prep* (LEAD PS)",
            "grades": "5th-8th",
            "addressLine1": "2835 Brick Church Pike",
            "city": "Nashville,",
            "state": "TN",
            "zip": "37207",
            "link": "http://www.brickchurchcollegeprep.org/",
            "phone": "615-806-6317",
            "lat": "36.220244",
            "lng": "-86.7807823",
            "schoolLevel": "Middle",
            "schoolType": "Charter"
        },
        {
            "name": "Cameron College Prep (LEAD PS)",
            "grades": "5th-8th",
            "addressLine1": "1034 1st Avenue",
            "city": "Nashville,",
            "state": "TN",
            "zip": "37210",
            "link": "http://cameroncollegeprep.org/",
            "phone": "615-806-6320",
            "lat": "36.1486282",
            "lng": "-86.76427560000002",
            "schoolLevel": "Middle",
            "schoolType": "Charter"
        },
        {
            "name": "East End Preparatory School",
            "grades": "K-4th",
            "addressLine1": "1460 McGavock Pike",
            "city": "Nashville,",
            "state": "TN",
            "zip": "37216",
            "link": "http://www.eastendprep.org/",
            "phone": "615-630-7470",
            "lat": "36.20613",
            "lng": "-86.718369",
            "schoolLevel": "Elementary",
            "schoolType": "Charter"
        },
        {
            "name": "Explore! Community School",
            "grades": "K",
            "addressLine1": "217 S. 10th Street",
            "city": "Nashville,",
            "state": "TN",
            "zip": "37206",
            "link": "http://www.explorecommunityschool.com/",
            "phone": "615-784-8222",
            "lat": "36.1744348",
            "lng": "-86.75157639999998",
            "schoolLevel": "Elementary",
            "schoolType": "Charter"
        },
        {
            "name": "Intrepid College Prep",
            "grades": "5th-7th",
            "addressLine1": "5432 Bell Forge Lane East",
            "city": "Antioch,",
            "state": "TN",
            "zip": "37013",
            "link": "http://intrepidcollegeprep.org/home/",
            "phone": "615-200-0131",
            "lat": "36.0498966",
            "lng": "-86.64510439999998",
            "schoolLevel": "Middle",
            "schoolType": "Charter"
        },
        {
            "name": "KIPP Academy Nashville (KIPP Nashville)",
            "grades": "5th-8th",
            "addressLine1": "123 Douglas Ave,",
            "city": "Nashville,",
            "state": "TN",
            "zip": "37207",
            "link": "http://www.kippnashville.org/Gen/2CMnPtCsPtPt.aspx?p1=2764&p2=2769&p3=2770&p4=2771&p5=2786&ph=2772",
            "phone": "615-226-4484, x 1",
            "lat": "36.19473",
            "lng": "-86.769138",
            "schoolLevel": "Middle",
            "schoolType": "Charter"
        },
        {
            "name": "KIPP Nashville College Prep (KIPP Nashville)",
            "grades": "5-7th",
            "addressLine1": "3410 Knight Drive",
            "city": "Nashville,",
            "state": "TN",
            "zip": "37207",
            "link": "http://www.kippnashville.org/Gen/2CMnPtCsPtPt.aspx?p1=2787&p2=2792&p3=2795&p4=2793&p5=2794&ph=2773",
            "phone": "615-226-4484, x 2",
            "lat": "36.2378199",
            "lng": "-86.80374159999997",
            "schoolLevel": "Middle",
            "schoolType": "Charter"
        },
        {
            "name": "KIPP Nashville Collegiate High School (KIPP Nashville)",
            "grades": "9th-10th",
            "addressLine1": "123 Douglas Ave",
            "city": "Nashville,",
            "state": "TN",
            "zip": "37207",
            "link": "http://www.kippnashville.org/Gen/2CMnPtCsPtPt.aspx?p1=3335&p2=3336&p3=3337&p4=3338&p5=3339&ph=3334",
            "phone": "615-226-4484, x 3",
            "lat": "36.19473",
            "lng": "-86.769138",
            "schoolLevel": "High",
            "schoolType": "Charter"
        },
        {
            "name": "KIPP Kirkpatrick (KIPP Nashville)",
            "grades": "K-1",
            "addressLine1": "1000 Sevier Street",
            "city": "Nashville,",
            "state": "TN",
            "zip": "37206",
            "link": "http://www.kipp.org/school-content/kipp-kirkpatrick-elementary-school",
            "phone": "615-226-4484, x 5",
            "lat": "36.167343",
            "lng": "-86.75209999999998",
            "schoolLevel": "Elementary",
            "schoolType": "Charter"
        },
        {
            "name": "Knowledge Academies",
            "grades": "5th-8th",
            "addressLine1": "5320 Hickory Hollow Pkwy",
            "city": "Antioch,",
            "state": "TN",
            "zip": "37013",
            "link": "http://www.knowledgeacademies.org/",
            "phone": "615-810-8370",
            "lat": "36.047062",
            "lng": "-86.65260360000002",
            "schoolLevel": "Middle",
            "schoolType": "Charter"
        },
        {
            "name": "Knowledge Academy High School",
            "grades": "9th",
            "addressLine1": "5320 Hickory Hollow Pkwy",
            "city": "Antioch,",
            "state": "TN",
            "zip": "37013",
            "link": "http://www.knowledgeacademies.org/",
            "phone": "615-810-8370",
            "lat": "36.047062",
            "lng": "-86.65260360000002",
            "schoolLevel": "High",
            "schoolType": "Charter"
        },
        {
            "name": "LEAD Academy Middle School (LEAD PS)",
            "grades": "5th-8th",
            "addressLine1": "2835 Brick Church Pike",
            "city": "Nashville,",
            "state": "TN",
            "zip": "37207",
            "link": "http://middle.leadacademy.org/",
            "phone": "615-352-1253",
            "lat": "36.220244",
            "lng": "-86.7807823",
            "schoolLevel": "Middle",
            "schoolType": "Charter"
        },
        {
            "name": "LEAD Academy High School (LEAD PS)",
            "grades": "9th-12th",
            "addressLine1": "1704 Heiman Street",
            "city": "Nashville,",
            "state": "TN",
            "zip": "37208",
            "link": "http://high.leadacademy.org/",
            "phone": "615-327-5422",
            "lat": "36.1721714",
            "lng": "-86.8056593",
            "schoolLevel": "High",
            "schoolType": "Charter"
        },
        {
            "name": "LEAD Prep Southeast (LEAD PS)",
            "grades": "5th-7th",
            "addressLine1": "531 Metroplex Drive",
            "city": "Nashville,",
            "state": "TN",
            "zip": "37211",
            "link": "http://www.leadprepsoutheast.org/",
            "phone": "615-584-6649",
            "lat": "36.0923713",
            "lng": "-86.70377930000001",
            "schoolLevel": "Middle",
            "schoolType": "Charter"
        },
        {
            "name": "Liberty Collegiate Academy (RePublic Schools)",
            "grades": "5th-8th",
            "addressLine1": "3515 Gallatin Road",
            "city": "Nashville,",
            "state": "TN",
            "zip": "37216",
            "link": "http://libertycollegiateacademy.org/",
            "phone": "615-564-1965",
            "lat": "36.21256",
            "lng": "-86.73325499999999",
            "schoolLevel": "Middle",
            "schoolType": "Charter"
        },
        {
            "name": "Nashville Academy of Computer Science (RePublic Schools)",
            "grades": "5th-6th",
            "addressLine1": "3307 Brick Church Pike",
            "city": "Nashville,",
            "state": "TN",
            "zip": "37207",
            "link": "http://www.nashvillecomputerscience.org/#about-nacs",
            "phone": "615-921-5000",
            "lat": "36.2424157",
            "lng": "-86.7790819",
            "schoolLevel": "Middle",
            "schoolType": "Charter"
        },
        {
            "name": "Nashville Classical Charter School",
            "grades": "K-2nd",
            "addressLine1": "1310 Ordway",
            "city": "Nashville,",
            "state": "TN",
            "zip": "37206",
            "link": "http://www.nashvilleclassical.org/",
            "phone": "615-538-5841",
            "lat": "36.179962",
            "lng": "-86.74605299999996",
            "schoolLevel": "Elementary",
            "schoolType": "Charter"
        },
        {
            "name": "Nashville Prep (RePublic Schools)",
            "grades": "5th-8th",
            "addressLine1": "1300 56th Avenue North",
            "city": "Nashville,",
            "state": "TN",
            "zip": "37209",
            "link": "http://nashvilleprep.org/",
            "phone": "615-921-8440",
            "lat": "36.1621003",
            "lng": "-86.85539870000002",
            "schoolLevel": "Middle",
            "schoolType": "Charter"
        },
        {
            "name": "Neely's Bend College Prep* (LEAD PS)",
            "grades": "5th",
            "addressLine1": "1251 Neely's Bend Road",
            "city": "Madison,",
            "state": "TN",
            "zip": "37115",
            "link": "http://neelysbend.leadacademy.org/",
            "phone": "615-806-6317",
            "lat": "36.2421812",
            "lng": "-86.6741505",
            "schoolLevel": "Middle",
            "schoolType": "Charter"
        },
        {
            "name": "New Vision Academy",
            "grades": "5th-8th",
            "addressLine1": "297 Plus Park Boulevard",
            "city": "Nashville,",
            "state": "TN",
            "zip": "37217",
            "link": "http://newvisionacademytn.org/",
            "phone": "615-360-1115",
            "lat": "36.1272749",
            "lng": "-86.72501599999998",
            "schoolLevel": "Middle",
            "schoolType": "Charter"
        },
        {
            "name": "Purpose Prep",
            "grades": "K-2nd",
            "addressLine1": "220 Venture",
            "city": "Circle,",
            "state": "TN",
            "zip": "37228",
            "link": "http://www.purposeprep.org/",
            "phone": "615-724-0705",
            "lat": "36.1942809",
            "lng": "-86.79472499999997",
            "schoolLevel": "Elementary",
            "schoolType": "Charter"
        },
        {
            "name": "RePublic High School (RePublic Schools)",
            "grades": "9th",
            "addressLine1": "3307 Brick Church Pike",
            "city": "Nashville,",
            "state": "TN",
            "zip": "37207",
            "link": "http://www.republichighschool.org/",
            "phone": "615-921-6620",
            "lat": "36.242416",
            "lng": "-86.779082",
            "schoolLevel": "High",
            "schoolType": "Charter"
        },
        {
            "name": "Rocketship Northeast Nashville",
            "grades": "K-4th",
            "addressLine1": "2526 Dickerson Pike",
            "city": "Nashville,",
            "state": "TN",
            "zip": "37207",
            "link": "http://www.rsed.org/nashville/enroll.cfm",
            "phone": "615-650-5560",
            "lat": "36.2136561",
            "lng": "-86.7650792",
            "schoolLevel": "Elementary",
            "schoolType": "Charter"
        },
        {
            "name": "Rocketship United Academy",
            "grades": "K-4th",
            "addressLine1": "320 Plus Park Blvd",
            "city": "Nashville,",
            "state": "TN",
            "zip": "37217",
            "link": "http://www.rsed.org/nashville/enroll.cfm",
            "phone": "615-650-5560",
            "lat": "36.130456",
            "lng": "-86.72480300000001",
            "schoolLevel": "Elementary",
            "schoolType": "Charter"
        },
        {
            "name": "Smithson Craighead Academy",
            "grades": "K-4th",
            "addressLine1": "730 Neely's Bend Rd",
            "city": "Madison,",
            "state": "TN",
            "zip": "37115",
            "link": "http://www.projectreflect.org/Project_Reflect/?page_id=59/smithsoncraighead.net/Welcome.html",
            "phone": "615-228-9886",
            "lat": "36.2503389",
            "lng": "-86.69698900000003",
            "schoolLevel": "Elementary",
            "schoolType": "Charter"
        },
        {
            "name": "STEM Preparatory Academy",
            "grades": "5th-8th",
            "addressLine1": "1162 Foster Ave",
            "city": "Nashville,",
            "state": "TN",
            "zip": "37210",
            "link": "http://stemprepacademy.org/",
            "phone": "615-921-2200",
            "lat": "36.1359854",
            "lng": "-86.7401797",
            "schoolLevel": "Middle",
            "schoolType": "Charter"
        },
        {
            "name": "STEM Prep High School",
            "grades": "9th",
            "addressLine1": "1162 Foster Ave",
            "city": "Nashville,",
            "state": "TN",
            "zip": "37210",
            "link": "http://stemprepacademy.org/",
            "phone": "615-921-2200",
            "lat": "36.1359854",
            "lng": "-86.7401797",
            "schoolLevel": "High",
            "schoolType": "Charter"
        },
        {
            "name": "STRIVE Collegiate Academy",
            "grades": "5th",
            "addressLine1": "3055 Lebanon Pike",
            "city": "Nashville,",
            "state": "TN",
            "zip": "37214",
            "link": "http://strivecollegiate.org/",
            "phone": "615-208-5039",
            "lat": "36.1788558",
            "lng": "-86.64296360000003",
            "schoolLevel": "Middle",
            "schoolType": "Charter"
        },
        {
            "name": "Valor Collegiate Academy",
            "grades": "5th-6th",
            "addressLine1": "4527 Nolensville Pike",
            "city": "Nashville,",
            "state": "TN",
            "zip": "37207",
            "link": "http://www.valorcollegiate.org/",
            "phone": "615-823-7982",
            "lat": "36.070607",
            "lng": "-86.72571599999998",
            "schoolLevel": "Middle",
            "schoolType": "Charter"
        },
        {
            "name": "Valor Collegiate Academy #2",
            "grades": "5th-6th",
            "addressLine1": "4527 Nolensville Pike",
            "city": "Nashville,",
            "state": "TN",
            "zip": "37207",
            "link": "http://www.valorcollegiate.org/",
            "phone": "615-823-7982",
            "lat": "36.070607",
            "lng": "-86.72571599999998",
            "schoolLevel": "Middle",
            "schoolType": "Charter"
        }
    ]
}